{"type":"FeatureCollection","features":[{"type":"Feature","properties":{"marker-color":"#c00","status":"Επισκέψιμο","theater_name":"Αρχαίο Θέατρο Διονύσου"},"geometry":{"type":"Point","coordinates":[23.727783858776093,37.970294640388985]}},{"type":"Feature","properties":{"marker-color":"#c00","status":"Επισκέψιμο","theater_name":"Αρχαίο Θέατρο Ζέας"},"geometry":{"type":"Point","coordinates":[23.64472657442093,37.93730368573879]}},{"type":"Feature","properties":{"marker-color":"#c00","status":"Επισκέψιμο","theater_name":"Αρχαίο Θέατρο Ερέτριας"},"geometry":{"type":"Point","coordinates":[23.7905877828598,38.39858794944401]}},{"type":"Feature","properties":{"marker-color":"#c00","status":"Επισκέψιμο","theater_name":"Ρωμαϊκό ωδείο Νικόπολης"},"geometry":{"type":"Point","coordinates":[20.737327337265015,39.023368042936724]}},{"type":"Feature","properties":{"marker-color":"#c00","status":"Επισκέψιμο","theater_name":"Αρχαίο θέατρο Μεσσήνης"},"geometry":{"type":"Point","coordinates":[21.91889941692352,37.17779139992719]}},{"type":"Feature","properties":{"marker-color":"#c00","status":"Επισκέψιμο","theater_name":"Αρχαίο θέατρο Μυτιλήνης"},"geometry":{"type":"Point","coordinates":[26.54692769050598,39.11057451977313]}},{"type":"Feature","properties":{"marker-color":"#c00","status":"Επισκέψιμο","theater_name":"Αρχαίο θέατρο Λίνδου"},"geometry":{"type":"Point","coordinates":[28.0870521068573,36.089807160295294]}},{"type":"Feature","properties":{"marker-color":"#c00","status":"Επισκέψιμο","theater_name":"Αρχαίο θέατρο Τραχώνων"},"geometry":{"type":"Point","coordinates":[23.74147882066707,37.91597062040676]}},{"type":"Feature","properties":{"marker-size":"","marker-symbol":"","marker-color":"#c00","theater_name":"Αρχαίο θέατρο Αβδήρων","status":"Επισκέψιμο"},"geometry":{"type":"Point","coordinates":[24.97213840484619,40.9342490013264]}},{"type":"Feature","properties":{"marker-color":"#c00","status":"Επισκέψιμο","theater_name":"Αρχαίο θέατρο Αιγείρας"},"geometry":{"type":"Point","coordinates":[22.377734184265137,38.128678644736254]}}]}